{"type":"FeatureCollection","features":[{"type":"Feature","id":9,"geometry":{"type":"Point","coordinates":[-77.049466500271294,38.901410490433669]},"properties":{"NAME":"FRESHFARM Foggy Bottom","ADDRESS":"901 23rd St NW, Washington, DC 20052","CITY":"Washington","STATE":"DC","ZIPCODE":"20052","MD_COUNTY":null,"WARD":"Ward 2","ANC":"ANC 2A","DAYS":"Wednesday","TIMES":"3:00 PM - 7:00 PM","WEBSITE":"https://www.freshfarm.org/markets","BENEFITS":"SNAP; WIC; Senior FMNP; Produce Plus; FreshMatch","SOCIAL":"https://www.instagram.com/freshfarmdc/, https://twitter.com/freshfarmdc","STARTDATE":"Year round","ENDDATE":null,"METRO":"Orange/Blue/Silver Line: Foggy Bottom-GWU","BUS":"32/ 33/ 36","PARKING":null,"MAR_ID":"242383","MAR_MATCHADDRESS":"901 23RD STREET NW","LONGITUDE":-77.049466499999994,"LATITUDE":38.901410490000004,"X_COORDINATE":395709.16999999998,"Y_COORDINATE":137063.04000000001,"SE_ANNO_CAD_DATA":null,"GLOBALID":"{246C8BCF-0E56-4D37-BBB9-EEC9934A1864}","CREATED_DATE":1752272575000,"LAST_EDITED_DATE":1752272575000,"OBJECTID":9}},{"type":"Feature","id":10,"geometry":{"type":"Point","coordinates":[-77.054777159907758,38.908569290250966]},"properties":{"NAME":"Rose Park Farmers Market","ADDRESS":"26th & O Street, NW","CITY":"Washington","STATE":"DC","ZIPCODE":"20007","MD_COUNTY":null,"WARD":"Ward 2","ANC":"ANC2E","DAYS":"Wednesday","TIMES":"3:00 PM - 7:00 PM","WEBSITE":"https://www.roseparkdc.org","BENEFITS":"WIC; WIC FMNP; Senior FMNP; Produce Plus","SOCIAL":"Roseparkfarmersmarket","STARTDATE":"May","ENDDATE":"October","METRO":null,"BUS":"G2/ D2 & D6","PARKING":"Some parking available","MAR_ID":"903449","MAR_MATCHADDRESS":"26TH STREET NW AND O STREET NW","LONGITUDE":-77.05477716,"LATITUDE":38.908569290000003,"X_COORDINATE":395248.98879353999,"Y_COORDINATE":137857.98796535999,"SE_ANNO_CAD_DATA":null,"GLOBALID":"{04397CC9-8C4A-4FAF-952C-5EADEDD3816E}","CREATED_DATE":1752272575000,"LAST_EDITED_DATE":1752272575000,"OBJECTID":10}},{"type":"Feature","id":11,"geometry":{"type":"Point","coordinates":[-77.111588269653694,38.9356902800046]},"properties":{"NAME":"Arcadia Mobile Market at Sibley Hospital","ADDRESS":"5522 Loughboro Road NW","CITY":"Washington","STATE":"DC","ZIPCODE":"20016","MD_COUNTY":null,"WARD":"Ward 3","ANC":"ANC 3D","DAYS":"Tuesday","TIMES":"11:3 0AM - 2:30 PM","WEBSITE":"https://www.arcadiafood.org","BENEFITS":"SNAP; WIC FMNP; Senior FMNP; Produce Plus  We double SNAP; WIC FMNP; and Senior FMNP.","SOCIAL":"facebook.com/arcadiafood  instagram.com/arcadiafood","STARTDATE":"May","ENDDATE":"December","METRO":null,"BUS":"D6/ E4/ M4","PARKING":"Yes","MAR_ID":"900428","MAR_MATCHADDRESS":"LOUGHBORO ROAD NW AND MACARTHUR BOULEVARD NW","LONGITUDE":-77.111588269999999,"LATITUDE":38.935690280000003,"X_COORDINATE":390325.24763698003,"Y_COORDINATE":140873.13414415999,"SE_ANNO_CAD_DATA":null,"GLOBALID":"{4989EE0F-1884-40CF-9D4D-95800EE841C0}","CREATED_DATE":1752272575000,"LAST_EDITED_DATE":1752272575000,"OBJECTID":11}},{"type":"Feature","id":12,"geometry":{"type":"Point","coordinates":[-77.058584150095271,38.934884449955739]},"properties":{"NAME":"FRESHFARM Cleveland Park","ADDRESS":"3426 Connecticut Ave NW, Washington, DC 20008","CITY":"Washington","STATE":"DC","ZIPCODE":"20008","MD_COUNTY":null,"WARD":"Ward 3","ANC":"ANC 3C","DAYS":"Saturday","TIMES":"9:00 AM - 1:00 PM","WEBSITE":"https://www.freshfarm.org/markets","BENEFITS":"SNAP; WIC; Senior FMNP; Produce Plus; FreshMatch","SOCIAL":"https://www.instagram.com/freshfarmdc/, https://twitter.com/freshfarmdc","STARTDATE":"April","ENDDATE":"December","METRO":"Red Line: Cleveland Park","BUS":"96","PARKING":null,"MAR_ID":"284685","MAR_MATCHADDRESS":"3426 CONNECTICUT AVENUE NW","LONGITUDE":-77.058584150000002,"LATITUDE":38.934884449999998,"X_COORDINATE":394920.66999999998,"Y_COORDINATE":140779.36000000002,"SE_ANNO_CAD_DATA":null,"GLOBALID":"{BAEA4178-E798-4246-AB7F-2B1D24F8FC8B}","CREATED_DATE":1752272575000,"LAST_EDITED_DATE":1752272575000,"OBJECTID":12}},{"type":"Feature","id":13,"geometry":{"type":"Point","coordinates":[-77.060747089729233,38.92825289993349]},"properties":{"NAME":"Maret School Farmers Market","ADDRESS":"3000 Cathedral Ave NW, Washington, DC","CITY":"Washington","STATE":"DC","ZIPCODE":"20008","MD_COUNTY":null,"WARD":"Ward 3","ANC":"ANC 3C","DAYS":"Saturday","TIMES":"9:00 AM - 1:00 PM","WEBSITE":"https://www.twinspringsfruitfarm.com","BENEFITS":"SNAP at single farmer/vendor; WIC; WIC FMNP; Senior FMNP; Produce Plus","SOCIAL":"Twin Springs Fruit Farm facebook","STARTDATE":"year round","ENDDATE":null,"METRO":"Red Line: Woodley Park-Zoo/Adams Morgan","BUS":"96/ L2","PARKING":"Yes","MAR_ID":"220176","MAR_MATCHADDRESS":"3000 CATHEDRAL AVENUE NW","LONGITUDE":-77.060747090000007,"LATITUDE":38.928252899999997,"X_COORDINATE":394732.65000000002,"Y_COORDINATE":140043.36000000002,"SE_ANNO_CAD_DATA":null,"GLOBALID":"{56014C92-BED5-4DF6-9D35-27819562BB02}","CREATED_DATE":1752272575000,"LAST_EDITED_DATE":1752272575000,"OBJECTID":13}},{"type":"Feature","id":14,"geometry":{"type":"Point","coordinates":[-77.070530189600461,38.946763059774327]},"properties":{"NAME":"New Morning Farm at Sheridan School (SAT)","ADDRESS":"4400 36th St NW DC 20008","CITY":"Washington","STATE":"DC","ZIPCODE":"20008","MD_COUNTY":null,"WARD":"Ward 3","ANC":"ANC 3F","DAYS":"Saturdays June - mid-March","TIMES":"8:00 AM - 1:00 PM","WEBSITE":"https://www.newmorningfarm.net","BENEFITS":"SNAP; WIC; Senior FMNP; Produce Plus","SOCIAL":"#newmorningfarm","STARTDATE":"May","ENDDATE":"March","METRO":"Red Line: Van Ness-UDC, Tenleytown- AU","BUS":null,"PARKING":"Parking Available","MAR_ID":"221854","MAR_MATCHADDRESS":"4400 36TH STREET NW","LONGITUDE":-77.070530189999999,"LATITUDE":38.946763060000002,"X_COORDINATE":393885.95000000001,"Y_COORDINATE":142098.76000000001,"SE_ANNO_CAD_DATA":null,"GLOBALID":"{CA8D87E5-92C8-4EC3-8C7E-5193F97EAAAA}","CREATED_DATE":1752272575000,"LAST_EDITED_DATE":1752272575000,"OBJECTID":14}},{"type":"Feature","id":15,"geometry":{"type":"Point","coordinates":[-77.070530189600461,38.946763059774327]},"properties":{"NAME":"New Morning Farm at Sheridan School (TUE)","ADDRESS":"4400 36th St NW DC 20008","CITY":"Washington","STATE":"DC","ZIPCODE":"20008","MD_COUNTY":null,"WARD":"Ward 3","ANC":"ANC 3F","DAYS":"Tuesdays June-Sept","TIMES":"3:00 PM - 7:00 PM","WEBSITE":"https://www.newmorningfarm.net","BENEFITS":"SNAP; WIC; Senior FMNP; Produce Plus","SOCIAL":"#sheridanSchool #newmorningfarm #sheridanmarket","STARTDATE":"June","ENDDATE":"September","METRO":"Red Line: Van Ness-UDC, Tenleytown- AU","BUS":null,"PARKING":"Parking Available","MAR_ID":"221854","MAR_MATCHADDRESS":"4400 36TH STREET NW","LONGITUDE":-77.070530189999999,"LATITUDE":38.946763060000002,"X_COORDINATE":393885.95000000001,"Y_COORDINATE":142098.76000000001,"SE_ANNO_CAD_DATA":null,"GLOBALID":"{EDFB88D2-79AB-4B86-B570-00CB14EA5A92}","CREATED_DATE":1752272575000,"LAST_EDITED_DATE":1752272575000,"OBJECTID":15}},{"type":"Feature","id":16,"geometry":{"type":"Point","coordinates":[-77.096684470378378,38.917455419977571]},"properties":{"NAME":"Palisades Farmers Market","ADDRESS":"MacArthur Blvd and 48th Place, NW","CITY":"Washington","STATE":"DC","ZIPCODE":"20007","MD_COUNTY":null,"WARD":"Ward 3","ANC":"ANC 3D","DAYS":"Sunday","TIMES":"9:00 AM - 1:00 PM","WEBSITE":"https://palisadesdc.org/farmers-market/","BENEFITS":"SNAP at single farmer/vendor; WIC","SOCIAL":null,"STARTDATE":"year round","ENDDATE":null,"METRO":null,"BUS":"D6","PARKING":"Parking Available","MAR_ID":"905043","MAR_MATCHADDRESS":"48TH PLACE NW AND MACARTHUR BOULEVARD NW","LONGITUDE":-77.09668447,"LATITUDE":38.917455420000003,"X_COORDINATE":391615.26895017002,"Y_COORDINATE":138847.43663827999,"SE_ANNO_CAD_DATA":null,"GLOBALID":"{508E432A-9D61-4C73-B94D-57EFFE7A28A6}","CREATED_DATE":1752272575000,"LAST_EDITED_DATE":1752272575000,"OBJECTID":16}},{"type":"Feature","id":17,"geometry":{"type":"Point","coordinates":[-77.064404969913895,38.944120499999649]},"properties":{"NAME":"UDC Van Ness Farmers Market","ADDRESS":"UDC Main Campus, UDC/Van Ness Metro station","CITY":"Washington","STATE":"DC","ZIPCODE":"20008","MD_COUNTY":null,"WARD":"Ward 3","ANC":"ANC 3F","DAYS":"Saturday","TIMES":"9:00 AM - 1:00 PM","WEBSITE":"https://www.facebook.com/udcvnmarket","BENEFITS":"SNAP market level; WIC; WIC FMNP; Senior FMNP; Produce Plus","SOCIAL":null,"STARTDATE":"April","ENDDATE":"November","METRO":"Red Line: Van Ness-UDC","BUS":null,"PARKING":null,"MAR_ID":"297694","MAR_MATCHADDRESS":"4200 CONNECTICUT AVENUE NW","LONGITUDE":-77.064404969999998,"LATITUDE":38.944120499999997,"X_COORDINATE":394416.72000000003,"Y_COORDINATE":141805.01999999999,"SE_ANNO_CAD_DATA":null,"GLOBALID":"{86E03DF5-B7FD-48C0-A3FF-1BAC3CA210BA}","CREATED_DATE":1752272575000,"LAST_EDITED_DATE":1752272575000,"OBJECTID":17}},{"type":"Feature","id":18,"geometry":{"type":"Point","coordinates":[-77.032846719733172,38.956357649861587]},"properties":{"NAME":"FRESHFARM Uptown","ADDRESS":"5501 Colorado Ave NW, Washington, DC 20011","CITY":"Washington","STATE":"DC","ZIPCODE":"20011","MD_COUNTY":null,"WARD":"Ward 4","ANC":"ANC 4E","DAYS":"Saturday","TIMES":"9:00 AM - 1:00 PM","WEBSITE":"https://www.freshfarm.org/markets","BENEFITS":"SNAP; WIC; Senior FMNP; Produce Plus; FreshMatch","SOCIAL":"https://www.instagram.com/freshfarmdc/, https://twitter.com/freshfarmdc","STARTDATE":"April","ENDDATE":"November","METRO":null,"BUS":"E4/ 52/ 54/ D34","PARKING":null,"MAR_ID":"285216","MAR_MATCHADDRESS":"5501 COLORADO AVENUE NW","LONGITUDE":-77.032846719999995,"LATITUDE":38.956357650000001,"X_COORDINATE":397153,"Y_COORDINATE":143161.95999999999,"SE_ANNO_CAD_DATA":null,"GLOBALID":"{436BC8E1-B487-4799-A04B-865641194C0F}","CREATED_DATE":1752272575000,"LAST_EDITED_DATE":1752272575000,"OBJECTID":18}},{"type":"Feature","id":19,"geometry":{"type":"Point","coordinates":[-77.019238599797376,38.965857270183008]},"properties":{"NAME":"FRESHFARM Whittier Elementary Farm Stand","ADDRESS":"6201 5th St NW, Washington, DC 20011","CITY":"Washington","STATE":"DC","ZIPCODE":"20011","MD_COUNTY":null,"WARD":"Ward 4","ANC":"ANC 4B","DAYS":"Tuesday","TIMES":"3:00 PM - 6:00 PM","WEBSITE":"https://www.freshfarm.org/markets","BENEFITS":"SNAP; WIC; Senior FMNP; Produce Plus; FreshMatch","SOCIAL":"https://www.instagram.com/freshfarmdc/, https://twitter.com/freshfarmdc","STARTDATE":"May","ENDDATE":"November","METRO":null,"BUS":"62/ 63","PARKING":null,"MAR_ID":"294614","MAR_MATCHADDRESS":"6201 5TH STREET NW","LONGITUDE":-77.019238599999994,"LATITUDE":38.965857270000001,"X_COORDINATE":398332.71000000002,"Y_COORDINATE":144216.17000000001,"SE_ANNO_CAD_DATA":null,"GLOBALID":"{A9AAA90F-7862-452A-AEC0-489C75E0E5BA}","CREATED_DATE":1752272575000,"LAST_EDITED_DATE":1752272575000,"OBJECTID":19}},{"type":"Feature","id":20,"geometry":{"type":"Point","coordinates":[-77.025137000064575,38.941580000241437]},"properties":{"NAME":"Petworth Community Market","ADDRESS":"4131-4101 Block 9th St NW Washington DC 20011","CITY":"Washington","STATE":"DC","ZIPCODE":"20011","MD_COUNTY":null,"WARD":"Ward 4","ANC":"ANC 4C","DAYS":"Saturday","TIMES":"9:00 AM - 1:00 PM","WEBSITE":"https://www.petworthcommunitymarket.org/","BENEFITS":"SNAP; WIC FMNP; Senior FMNP; Produce Plus We double SNAP; WIC FMNP; and Senior FMNP.","SOCIAL":"@petworthmarket","STARTDATE":"May","ENDDATE":"November","METRO":"Green Line: Petworth - Georgia Ave","BUS":"60/ 62/ 63/ 64/ 70/ 79/ H8","PARKING":"Parking Available","MAR_ID":"810950","MAR_MATCHADDRESS":"4100 - 4199 BLOCK OF 9TH STREET NW","LONGITUDE":-77.025137000000001,"LATITUDE":38.941579999999995,"X_COORDINATE":397829.33000000002,"Y_COORDINATE":141495.41,"SE_ANNO_CAD_DATA":null,"GLOBALID":"{44757F71-8E19-4A50-88B3-762EEB697CE8}","CREATED_DATE":1752272575000,"LAST_EDITED_DATE":1752272575000,"OBJECTID":20}},{"type":"Feature","id":21,"geometry":{"type":"Point","coordinates":[-77.023502300539405,38.945149850184855]},"properties":{"NAME":"Petworth Corner Market","ADDRESS":"Intersection, 8th St & Allison St, Washington, DC 20011","CITY":"Washington","STATE":"DC","ZIPCODE":"20011","MD_COUNTY":null,"WARD":"Ward 4","ANC":"ANC 4C","DAYS":"1st, 2nd, & 4th Sunday","TIMES":"3:00 PM - 8:00 PM","WEBSITE":null,"BENEFITS":"WIC FMNP; Senior FMNP; Produce Plus","SOCIAL":null,"STARTDATE":"May","ENDDATE":"November","METRO":null,"BUS":null,"PARKING":null,"MAR_ID":"902246","MAR_MATCHADDRESS":"8TH STREET NW AND ALLISON STREET NW","LONGITUDE":-77.023502300000004,"LATITUDE":38.94514985,"X_COORDINATE":397962.61001205997,"Y_COORDINATE":141917.58000113,"SE_ANNO_CAD_DATA":null,"GLOBALID":"{F5673EC5-7F0E-4CBC-8C8C-EBBF9D83A16A}","CREATED_DATE":1752272575000,"LAST_EDITED_DATE":1752272575000,"OBJECTID":21}},{"type":"Feature","id":22,"geometry":{"type":"Point","coordinates":[-76.997376320097075,38.924489760358817]},"properties":{"NAME":"Arcadia Mobile Market at Edgewood","ADDRESS":"Intersection, Evarts Street NE & Edgewood Street NE","CITY":"Washington","STATE":"DC","ZIPCODE":"20017","MD_COUNTY":null,"WARD":"Ward 5","ANC":"ANC 5F","DAYS":"Friday","TIMES":"3:00 PM - 6:00 PM","WEBSITE":"https://www.arcadiafood.org","BENEFITS":"SNAP; WIC FMNP; Senior FMNP; Produce Plus  We double SNAP; WIC FMNP; and Senior FMNP.","SOCIAL":"facebook.com/arcadiafood  instagram.com/arcadiafood","STARTDATE":"May","ENDDATE":"December","METRO":"Red Line: Rhode Island Ave-Brentwood, Brookland-CUA","BUS":"G8/ D6","PARKING":"Yes","MAR_ID":"903941","MAR_MATCHADDRESS":"EDGEWOOD STREET NE AND EVARTS STREET NE","LONGITUDE":-76.997376320000001,"LATITUDE":38.92448976,"X_COORDINATE":400227.51001416001,"Y_COORDINATE":139623.87001499999,"SE_ANNO_CAD_DATA":null,"GLOBALID":"{78156497-8710-4164-9A0D-5D76A6199BC3}","CREATED_DATE":1752272575000,"LAST_EDITED_DATE":1752272575000,"OBJECTID":22}},{"type":"Feature","id":23,"geometry":{"type":"Point","coordinates":[-77.012447489810938,38.912753140282859]},"properties":{"NAME":"Bloomingdale Farmers Market","ADDRESS":"100 Block of R Street NW","CITY":"Washington","STATE":"DC","ZIPCODE":"20001","MD_COUNTY":null,"WARD":"Ward 5","ANC":"ANC 5E","DAYS":"Sundays","TIMES":"9:00 AM - 1:00 PM","WEBSITE":"https://www.bloomingdalemarket-dc.com/","BENEFITS":"SNAP; WIC FMNP; Senior FMNP; Produce Plus We double SNAP.","SOCIAL":"https://www.instagram.com/bloomingdalefarmersmarket.dc","STARTDATE":"Year round","ENDDATE":null,"METRO":null,"BUS":"90/ 92","PARKING":"Parking Available (street)","MAR_ID":"305794","MAR_MATCHADDRESS":"105 R STREET NW","LONGITUDE":-77.01244749,"LATITUDE":38.91275314,"X_COORDINATE":398920.45000000001,"Y_COORDINATE":138321.04000000001,"SE_ANNO_CAD_DATA":null,"GLOBALID":"{C1B4AA99-25CB-4998-842D-699D0C2BFAD8}","CREATED_DATE":1752272575000,"LAST_EDITED_DATE":1752272575000,"OBJECTID":23}},{"type":"Feature","id":24,"geometry":{"type":"Point","coordinates":[-76.996912479912382,38.922109390038344]},"properties":{"NAME":"Edgewood Market","ADDRESS":"670 Rhode Island Ave NE, Washington DC 20002","CITY":"Washington","STATE":"DC","ZIPCODE":"20002","MD_COUNTY":null,"WARD":"Ward 5","ANC":"ANC 5F","DAYS":"1st and 3rd Saturdays","TIMES":"10:00 AM - 2:00 PM","WEBSITE":"https://dcsquared.org/dc%c2%b2-markets/","BENEFITS":"SNAP - Individual Farmer","SOCIAL":"@dcsquared","STARTDATE":"June","ENDDATE":"October","METRO":"Red Line: Rhode Island Ave-Brentwood","BUS":null,"PARKING":null,"MAR_ID":"334796","MAR_MATCHADDRESS":"670 RHODE ISLAND AVENUE NE","LONGITUDE":-76.996912480000006,"LATITUDE":38.922109390000003,"X_COORDINATE":400267.73999999999,"Y_COORDINATE":139359.63,"SE_ANNO_CAD_DATA":null,"GLOBALID":"{8580BB39-FA1A-4656-8CF0-8B14CC7019FD}","CREATED_DATE":1752272575000,"LAST_EDITED_DATE":1752272575000,"OBJECTID":24}},{"type":"Feature","id":25,"geometry":{"type":"Point","coordinates":[-76.995159160331198,38.932858320393983]},"properties":{"NAME":"FRESHFARM Monroe Street","ADDRESS":"The Arts Walk, 716 Monroe St NE, Washington, DC 20017","CITY":"Washington","STATE":"DC","ZIPCODE":"20017","MD_COUNTY":null,"WARD":"Ward 5","ANC":"ANC 5F","DAYS":"Saturday","TIMES":"9:00 AM - 1:00 PM","WEBSITE":"https://www.freshfarm.org/markets","BENEFITS":"SNAP; WIC; Senior FMNP; Produce Plus; FreshMatch","SOCIAL":"https://www.instagram.com/freshfarmdc/, https://twitter.com/freshfarmdc","STARTDATE":"Year round","ENDDATE":null,"METRO":"Red Line:  Brookland-CUA","BUS":"80/ G8/ H2/ H4","PARKING":null,"MAR_ID":"309744","MAR_MATCHADDRESS":"716 MONROE STREET NE","LONGITUDE":-76.99515916,"LATITUDE":38.932858320000001,"X_COORDINATE":400419.72000000003,"Y_COORDINATE":140552.86000000002,"SE_ANNO_CAD_DATA":null,"GLOBALID":"{87FEDDFA-84F6-4F64-8CF7-AB2F80F900C7}","CREATED_DATE":1752272575000,"LAST_EDITED_DATE":1752272575000,"OBJECTID":25}},{"type":"Feature","id":27,"geometry":{"type":"Point","coordinates":[-76.975583490462,38.94015139001943]},"properties":{"NAME":"Co-Op Farmers Market","ADDRESS":"2015 Bunker Hill Rd NE, Washington, DC 20018","CITY":"Washington","STATE":"DC","ZIPCODE":"20018","MD_COUNTY":null,"WARD":"Ward 5","ANC":"ANC 5B","DAYS":"1st & 3rd Saturday","TIMES":"1:00 PM - 5:00 PM","WEBSITE":"https://appealinc.wildapricot.org/event-2131254","BENEFITS":"WIC FMNP; Senior FMNP; Produce Plus","SOCIAL":null,"STARTDATE":"May","ENDDATE":"November","METRO":null,"BUS":null,"PARKING":null,"MAR_ID":"52825","MAR_MATCHADDRESS":"2015 BUNKER HILL ROAD NE","LONGITUDE":-76.975583490000005,"LATITUDE":38.940151389999997,"X_COORDINATE":402116.79000000004,"Y_COORDINATE":141362.69,"SE_ANNO_CAD_DATA":null,"GLOBALID":"{5C67050B-C8C6-4645-8FE1-C73F8E21EED0}","CREATED_DATE":1752272575000,"LAST_EDITED_DATE":1752272575000,"OBJECTID":27}},{"type":"Feature","id":28,"geometry":{"type":"Point","coordinates":[-76.98850076955101,38.904117740391179]},"properties":{"NAME":"Trinidad Farmers Market","ADDRESS":"Joseph Cole Community Center Parking Lot 1299 Neal St NE, Washington, DC 20002","CITY":"Washington","STATE":"DC","ZIPCODE":"20002","MD_COUNTY":null,"WARD":"Ward 5","ANC":"ANC 5D","DAYS":"Sunday","TIMES":"9:00 AM - 1:00 PM","WEBSITE":"https://www.trinidadfarmersmarket.net","BENEFITS":"WIC FMNP; Senior FMNP; Produce Plus","SOCIAL":"https://www.facebook.com/profile.php?id=61550283881223","STARTDATE":"April","ENDDATE":"December","METRO":null,"BUS":"D4/ D8","PARKING":"Parking Available","MAR_ID":"294512","MAR_MATCHADDRESS":"1299 NEAL STREET NE","LONGITUDE":-76.988500770000002,"LATITUDE":38.904117739999997,"X_COORDINATE":400997.42999999999,"Y_COORDINATE":137362.42999999999,"SE_ANNO_CAD_DATA":null,"GLOBALID":"{6D6462FD-A1A8-4D7E-8FB3-13EFEEC44A1F}","CREATED_DATE":1752272575000,"LAST_EDITED_DATE":1752272575000,"OBJECTID":28}},{"type":"Feature","id":26,"geometry":{"type":"Point","coordinates":[-76.998076980417437,38.908647449936915]},"properties":{"NAME":"FRESHFARM Union Market District","ADDRESS":"1298 5th St NE, Washington, DC 20002","CITY":"Washington","STATE":"DC","ZIPCODE":"20002","MD_COUNTY":null,"WARD":"Ward 5","ANC":"ANC 5D","DAYS":"Sunday","TIMES":"10:00 AM - 2:00 PM","WEBSITE":"https://www.freshfarm.org/markets","BENEFITS":"SNAP; WIC; Senior FMNP; Produce Plus; FreshMatch","SOCIAL":"https://www.instagram.com/freshfarmdc/, https://twitter.com/freshfarmdc","STARTDATE":"April","ENDDATE":"November","METRO":"Red Line: NoMa-Gallaudet U","BUS":"92/ 90","PARKING":null,"MAR_ID":"905149","MAR_MATCHADDRESS":"5TH STREET NE AND NEAL PLACE NE","LONGITUDE":-76.998076979999993,"LATITUDE":38.908647449999997,"X_COORDINATE":400166.79001410998,"Y_COORDINATE":137865.23999736999,"SE_ANNO_CAD_DATA":null,"GLOBALID":"{BF222699-4C6E-48CE-A905-85FDEC90D63B}","CREATED_DATE":1752272575000,"LAST_EDITED_DATE":1752272575000,"OBJECTID":26}},{"type":"Feature","id":37,"geometry":{"type":"Point","coordinates":[-76.93215557948686,38.908444960202822]},"properties":{"NAME":"Arcadia Mobile Market at Deanwood","ADDRESS":"Deanwood Recreation Center, 48th Street NE & Minnesota Avenue NE","CITY":"Washington","STATE":"DC","ZIPCODE":"20019","MD_COUNTY":null,"WARD":"Ward 7","ANC":"ANC 7C","DAYS":"Saturday","TIMES":"10:00 AM - 1:00 PM","WEBSITE":"https://www.arcadiafood.org","BENEFITS":"SNAP; WIC FMNP; Senior FMNP; Produce Plus  We double SNAP; WIC FMNP; and Senior FMNP.","SOCIAL":"facebook.com/arcadiafood  instagram.com/arcadiafood","STARTDATE":"May","ENDDATE":"December","METRO":"Orange Line: Deanwood","BUS":"R12/ U7/ V14/ W4","PARKING":"Yes","MAR_ID":"307551","MAR_MATCHADDRESS":"1350 49TH STREET NE","LONGITUDE":-76.93215558,"LATITUDE":38.908444959999997,"X_COORDINATE":405884.39000000001,"Y_COORDINATE":137844.91,"SE_ANNO_CAD_DATA":null,"GLOBALID":"{3243FEEA-60A3-4658-8DB2-D29F24784192}","CREATED_DATE":1752272575000,"LAST_EDITED_DATE":1752272575000,"OBJECTID":37}},{"type":"Feature","id":29,"geometry":{"type":"Point","coordinates":[-76.977936899514546,38.927904470370947]},"properties":{"NAME":"Woodridge Market","ADDRESS":"1803 Rhode Island Ave NE, Washington, DC 20018","CITY":"Washington","STATE":"DC","ZIPCODE":"20018","MD_COUNTY":null,"WARD":"Ward 5","ANC":"ANC 5C","DAYS":"2nd and 4th Saturdays","TIMES":"10:00 AM - 2:00 PM","WEBSITE":"https://dcsquared.org/dc%c2%b2-markets/","BENEFITS":"SNAP - Individual Farmer","SOCIAL":"@dcsquared","STARTDATE":"June","ENDDATE":"October","METRO":"Red Line: Rhode Island Ave-Brentwood","BUS":null,"PARKING":null,"MAR_ID":"56031","MAR_MATCHADDRESS":"1803 RHODE ISLAND AVENUE NE","LONGITUDE":-76.977936900000003,"LATITUDE":38.927904470000001,"X_COORDINATE":401913.09000000003,"Y_COORDINATE":140003.16,"SE_ANNO_CAD_DATA":null,"GLOBALID":"{B36F0ED4-928F-46D8-927F-98AEE7E00D78}","CREATED_DATE":1752272575000,"LAST_EDITED_DATE":1752272575000,"OBJECTID":29}},{"type":"Feature","id":30,"geometry":{"type":"Point","coordinates":[-76.996468429594543,38.88641312009274]},"properties":{"NAME":"Eastern Market (SAT & SUN)","ADDRESS":"225 7th St SE","CITY":"Washington","STATE":"DC","ZIPCODE":"20003","MD_COUNTY":null,"WARD":"Ward 6","ANC":"ANC 6B","DAYS":"Saturday, Sunday","TIMES":"9:00 AM - 3:30 PM","WEBSITE":"https://www.easternmarket-dc.org","BENEFITS":"SNAP; WIC FMNP; Senior FMNP; Produce Plus","SOCIAL":"Instagram and Tiktok: @easternmarket_dc, facebook: easternmarketdc","STARTDATE":"March","ENDDATE":"December","METRO":"Orange/Silver/Blue Line: Eastern Market","BUS":null,"PARKING":"Parking Available (street)","MAR_ID":"300829","MAR_MATCHADDRESS":"225 7TH STREET SE","LONGITUDE":-76.996468429999993,"LATITUDE":38.88641312,"X_COORDINATE":400306.40000000002,"Y_COORDINATE":135397.01999999999,"SE_ANNO_CAD_DATA":null,"GLOBALID":"{2A8211DC-D2D5-4012-A3FB-9EA722C0B298}","CREATED_DATE":1752272575000,"LAST_EDITED_DATE":1752272575000,"OBJECTID":30}},{"type":"Feature","id":31,"geometry":{"type":"Point","coordinates":[-77.018714559889332,38.876841820061522]},"properties":{"NAME":"Farmers Market SW","ADDRESS":"425 M Street SW DC","CITY":"Washington","STATE":"DC","ZIPCODE":"20024","MD_COUNTY":null,"WARD":"Ward 6","ANC":"ANC 6D","DAYS":"Saturdays","TIMES":"9:00 AM - 1:00 PM","WEBSITE":"https://www.marketswdc.com","BENEFITS":"SNAP; WIC; Produce Plus","SOCIAL":"@farmersmarketsw","STARTDATE":"April","ENDDATE":"December","METRO":"Green Line: Waterfront","BUS":"74","PARKING":"Parking","MAR_ID":"307293","MAR_MATCHADDRESS":"425 M STREET SW","LONGITUDE":-77.018714560000006,"LATITUDE":38.876841820000003,"X_COORDINATE":398376.10000000003,"Y_COORDINATE":134334.73000000001,"SE_ANNO_CAD_DATA":null,"GLOBALID":"{ABB2D624-BC14-4650-A917-E7CB10DFE650}","CREATED_DATE":1752272575000,"LAST_EDITED_DATE":1752272575000,"OBJECTID":31}},{"type":"Feature","id":32,"geometry":{"type":"Point","coordinates":[-76.988308299518081,38.9002011904036]},"properties":{"NAME":"FRESHFARM H Street NE","ADDRESS":"800 13th St NE, Washington, DC 20002","CITY":"Washington","STATE":"DC","ZIPCODE":"20002","MD_COUNTY":null,"WARD":"Ward 6","ANC":"ANC 6A","DAYS":"Saturday","TIMES":"9:00 AM - 12:30 PM","WEBSITE":"https://www.freshfarm.org/markets","BENEFITS":"SNAP; WIC; Senior FMNP; Produce Plus; FreshMatch","SOCIAL":"https://www.instagram.com/freshfarmdc/, https://twitter.com/freshfarmdc","STARTDATE":"Year round","ENDDATE":null,"METRO":null,"BUS":"X2/ Streetcar: H/Benning Line","PARKING":null,"MAR_ID":"900744","MAR_MATCHADDRESS":"H STREET NE AND 13TH STREET NE","LONGITUDE":-76.9883083,"LATITUDE":38.900201189999997,"X_COORDINATE":401014.17999888997,"Y_COORDINATE":136927.69999650001,"SE_ANNO_CAD_DATA":null,"GLOBALID":"{7A05E0C0-A904-485B-B186-79441C787FBB}","CREATED_DATE":1752272575000,"LAST_EDITED_DATE":1752272575000,"OBJECTID":32}},{"type":"Feature","id":33,"geometry":{"type":"Point","coordinates":[-77.018926939710369,38.901123959789381]},"properties":{"NAME":"FRESHFARM Mount Vernon Triangle","ADDRESS":"499 I St NW, Washington, DC 20001","CITY":"Washington","STATE":"DC","ZIPCODE":"20001","MD_COUNTY":null,"WARD":"Ward 6","ANC":"ANC 6E","DAYS":"Saturday","TIMES":"9:00 AM - 1:00 PM","WEBSITE":"https://www.freshfarm.org/markets","BENEFITS":"SNAP; WIC; Senior FMNP; Produce Plus; FreshMatch","SOCIAL":"https://www.instagram.com/freshfarmdc/, https://twitter.com/freshfarmdc","STARTDATE":"Year round","ENDDATE":null,"METRO":null,"BUS":"220/ 240/ 260/ D4/ P6","PARKING":null,"MAR_ID":"904978","MAR_MATCHADDRESS":"MASSACHUSETTS AVENUE NW AND 5TH STREET NW","LONGITUDE":-77.01892694,"LATITUDE":38.90112396,"X_COORDINATE":398358.23001242999,"Y_COORDINATE":137030.23999659999,"SE_ANNO_CAD_DATA":null,"GLOBALID":"{E5956507-3980-482B-8FD9-3CA7C4DA578A}","CREATED_DATE":1752272575000,"LAST_EDITED_DATE":1752272575000,"OBJECTID":33}},{"type":"Feature","id":34,"geometry":{"type":"Point","coordinates":[-77.002031239899338,38.907231689852544]},"properties":{"NAME":"NoMa Farmers Market","ADDRESS":"3rd Street NE between M and N Streets NE","CITY":"Washington","STATE":"DC","ZIPCODE":"20002","MD_COUNTY":null,"WARD":"Ward 6","ANC":"ANC 6C","DAYS":"Thursday","TIMES":"4:00 PM - 8:00 PM","WEBSITE":"https://www.nomabid.org/farmersmarket","BENEFITS":"SNAP/WIC/ Produce Plus","SOCIAL":"@noma.bid","STARTDATE":"April","ENDDATE":"October","METRO":"Red Line: NoMa-Gallaudet U","BUS":"90/ 92","PARKING":null,"MAR_ID":"905526","MAR_MATCHADDRESS":"3RD STREET NE AND N STREET NE","LONGITUDE":-77.002031239999994,"LATITUDE":38.907231690000003,"X_COORDINATE":399823.81999778998,"Y_COORDINATE":137708.07999721999,"SE_ANNO_CAD_DATA":null,"GLOBALID":"{16B95A04-3208-4BD7-84F5-93DCCDC4E70A}","CREATED_DATE":1752272575000,"LAST_EDITED_DATE":1752272575000,"OBJECTID":34}},{"type":"Feature","id":36,"geometry":{"type":"Point","coordinates":[-76.988308730245564,38.882840880123531]},"properties":{"NAME":"Watkins Farmstand","ADDRESS":"1300 E St SE","CITY":"Washington","STATE":"DC","ZIPCODE":"20003","MD_COUNTY":null,"WARD":"Ward 6","ANC":"ANC 6B","DAYS":"Wednesday","TIMES":"3:00 PM - 7:00 PM","WEBSITE":null,"BENEFITS":"WIC; WIC FMNP; Senior FMNP; Produce Plus (All SNAP; WIC; FMNP and Produce Plus customers receive an additional 10% off our retail prices)","SOCIAL":"deeprootsfarm","STARTDATE":"June","ENDDATE":"October","METRO":"Green Line: Potomac Ave","BUS":"32/ 36/ V4","PARKING":null,"MAR_ID":"900989","MAR_MATCHADDRESS":"13TH STREET SE AND E STREET SE","LONGITUDE":-76.98830873,"LATITUDE":38.882840880000003,"X_COORDINATE":401014.39001489,"Y_COORDINATE":135000.57001071001,"SE_ANNO_CAD_DATA":null,"GLOBALID":"{B43F9FF2-54C8-4C8D-8C41-1F2B0E1F1834}","CREATED_DATE":1752272575000,"LAST_EDITED_DATE":1752272575000,"OBJECTID":36}},{"type":"Feature","id":38,"geometry":{"type":"Point","coordinates":[-76.949553579485183,38.899624260229118]},"properties":{"NAME":"Arcadia Mobile Market at Parkside","ADDRESS":"650 Kenilworth Terrace NE, across from The Grove Apts","CITY":"Washington","STATE":"DC","ZIPCODE":"20019","MD_COUNTY":null,"WARD":"Ward 7","ANC":"ANC 7D","DAYS":"Wednesday","TIMES":"3:00 PM - 6:00 PM","WEBSITE":"https://www.arcadiafood.org","BENEFITS":"SNAP; WIC FMNP; Senior FMNP; Produce Plus  We double SNAP; WIC FMNP; and Senior FMNP.","SOCIAL":"facebook.com/arcadiafood  instagram.com/arcadiafood","STARTDATE":"May","ENDDATE":"December","METRO":"Orange Line: Minnesota Ave","BUS":"U7","PARKING":"Yes","MAR_ID":"334656","MAR_MATCHADDRESS":"650 KENILWORTH TERRACE NE","LONGITUDE":-76.94955358,"LATITUDE":38.899624260000003,"X_COORDINATE":404375.94,"Y_COORDINATE":136864.79999999999,"SE_ANNO_CAD_DATA":null,"GLOBALID":"{1E44723C-BE2D-4902-8A04-F4B3871E8F48}","CREATED_DATE":1752272575000,"LAST_EDITED_DATE":1752272575000,"OBJECTID":38}},{"type":"Feature","id":40,"geometry":{"type":"Point","coordinates":[-76.949401510114882,38.900466989753021]},"properties":{"NAME":"FRESHFARM Cesar Chavez","ADDRESS":"700 Parkside Pl NE, Washington, DC 20019","CITY":"Washington","STATE":"DC","ZIPCODE":"20019","MD_COUNTY":null,"WARD":"Ward 7","ANC":"ANC 7D","DAYS":"Saturday","TIMES":"9:00 AM - 1:00 PM","WEBSITE":"https://www.freshfarm.org/markets","BENEFITS":"SNAP; WIC; Senior FMNP; Produce Plus; FreshMatch","SOCIAL":"https://www.instagram.com/freshfarmdc/, https://twitter.com/freshfarmdc","STARTDATE":"June","ENDDATE":"November","METRO":"Orange Line: Minnesota Ave","BUS":"U5/ U6/ U7","PARKING":null,"MAR_ID":"146096","MAR_MATCHADDRESS":"700 PARKSIDE PLACE NE","LONGITUDE":-76.949401510000001,"LATITUDE":38.900466989999998,"X_COORDINATE":404389.08000000002,"Y_COORDINATE":136958.32000000001,"SE_ANNO_CAD_DATA":null,"GLOBALID":"{F719AEA1-E632-49E2-B181-DB148714A1B5}","CREATED_DATE":1752272575000,"LAST_EDITED_DATE":1752272575000,"OBJECTID":40}},{"type":"Feature","id":41,"geometry":{"type":"Point","coordinates":[-76.94095192022435,38.908337429624936]},"properties":{"NAME":"FRESHFARM Kenilworth Rec Center","ADDRESS":"4321 Ord St NE, Washington, DC 20019","CITY":"Washington","STATE":"DC","ZIPCODE":"20019","MD_COUNTY":null,"WARD":"Ward 7","ANC":"ANC 7D","DAYS":"Saturday","TIMES":"9:00 AM - 1:00 PM","WEBSITE":"https://www.freshfarm.org/markets","BENEFITS":"SNAP; WIC; Senior FMNP; Produce Plus; FreshMatch","SOCIAL":"https://www.instagram.com/freshfarmdc/, https://twitter.com/freshfarmdc","STARTDATE":"June","ENDDATE":"November","METRO":null,"BUS":null,"PARKING":"Parking on site","MAR_ID":"314577","MAR_MATCHADDRESS":"4321 ORD STREET NE","LONGITUDE":-76.940951920000003,"LATITUDE":38.908337430000003,"X_COORDINATE":405121.46000000002,"Y_COORDINATE":137832.48000000001,"SE_ANNO_CAD_DATA":null,"GLOBALID":"{04316C2C-6FE1-46A9-9879-F7EF16CC58AA}","CREATED_DATE":1752272575000,"LAST_EDITED_DATE":1752272575000,"OBJECTID":41}},{"type":"Feature","id":42,"geometry":{"type":"Point","coordinates":[-76.947454939780258,38.893132329781707]},"properties":{"NAME":"FRESHFARM Minnesota Ave","ADDRESS":"322 40th St NE, Washington, DC 20019","CITY":"Washington","STATE":"DC","ZIPCODE":"20019","MD_COUNTY":null,"WARD":"Ward 7","ANC":"ANC 7F","DAYS":"Thursday","TIMES":"1:00 PM - 4:00 PM","WEBSITE":"https://www.freshfarm.org/markets","BENEFITS":"SNAP; WIC; Senior FMNP; Produce Plus; FreshMatch","SOCIAL":"https://www.instagram.com/freshfarmdc/, https://twitter.com/freshfarmdc","STARTDATE":"June","ENDDATE":"November","METRO":"Orange Line: Minnesota Ave","BUS":"U5/ U6/ V2/ V4","PARKING":"Yes","MAR_ID":"295141","MAR_MATCHADDRESS":"322 40TH STREET NE","LONGITUDE":-76.94745494,"LATITUDE":38.89313233,"X_COORDINATE":404558.40000000002,"Y_COORDINATE":136144.20999999999,"SE_ANNO_CAD_DATA":null,"GLOBALID":"{6A6876FC-7ED0-41B8-8D3F-30B5CB1406EE}","CREATED_DATE":1752272575000,"LAST_EDITED_DATE":1752272575000,"OBJECTID":42}},{"type":"Feature","id":43,"geometry":{"type":"Point","coordinates":[-76.969422999980765,38.896762999751267]},"properties":{"NAME":"RFK Open Air Market","ADDRESS":"2615 Benning Rd, NE Washington, DC 20002","CITY":"Washington","STATE":"DC","ZIPCODE":"20019","MD_COUNTY":null,"WARD":"Ward 7","ANC":"ANC 7D","DAYS":"Saturday","TIMES":"8:00 AM - 3:00 PM","WEBSITE":"https://www.millerfarmsclinton.com","BENEFITS":"SNAP at single farmer/vendor; WIC FMNP; Senior FMNP; Produce Plus","SOCIAL":null,"STARTDATE":"June","ENDDATE":"December","METRO":"Blue/Orange/Silver Line: Stadium-Armory","BUS":null,"PARKING":"Parking Available","MAR_ID":null,"MAR_MATCHADDRESS":null,"LONGITUDE":-76.969422999999992,"LATITUDE":38.896763,"X_COORDINATE":402652.26000000001,"Y_COORDINATE":136545.63,"SE_ANNO_CAD_DATA":null,"GLOBALID":"{CFDDF3A7-D7AD-4FF0-A3CF-3F14C1F3260F}","CREATED_DATE":1752272575000,"LAST_EDITED_DATE":1752272575000,"OBJECTID":43}},{"type":"Feature","id":44,"geometry":{"type":"Point","coordinates":[-77.003733029433334,38.839904380385533]},"properties":{"NAME":"Arcadia MM at Congress Hts Wellness Center","ADDRESS":"3500 MLK Jr. Ave SE","CITY":"Washington","STATE":"DC","ZIPCODE":"20032","MD_COUNTY":null,"WARD":"Ward 8","ANC":"ANC 8C","DAYS":"Thursday","TIMES":"10:00 AM - 1:00 PM","WEBSITE":"https://www.arcadiafood.org","BENEFITS":"SNAP; WIC FMNP; Senior FMNP; Produce Plus  We double SNAP; WIC FMNP; and Senior FMNP.","SOCIAL":"facebook.com/arcadiafood  instagram.com/arcadiafood","STARTDATE":"May","ENDDATE":"October","METRO":null,"BUS":"A2/A4/A8/W1/W3/W4","PARKING":"Yes","MAR_ID":"303598","MAR_MATCHADDRESS":"3500 MARTIN LUTHER KING JR AVENUE SE","LONGITUDE":-77.003733030000006,"LATITUDE":38.83990438,"X_COORDINATE":399675.91000000003,"Y_COORDINATE":130234.21000000001,"SE_ANNO_CAD_DATA":null,"GLOBALID":"{B75C5B6E-CAD8-4CE1-B5F3-E069FB5DA7F8}","CREATED_DATE":1752272575000,"LAST_EDITED_DATE":1752272575000,"OBJECTID":44}},{"type":"Feature","id":45,"geometry":{"type":"Point","coordinates":[-77.009418790339808,38.831251100387881]},"properties":{"NAME":"Arcadia Mobile Market at Bellevue Library","ADDRESS":"(William O Lockridge) Bellevue Neighborhood Library, 115 Atlantic Street SW","CITY":"Washington","STATE":"DC","ZIPCODE":"20032","MD_COUNTY":null,"WARD":"Ward 8","ANC":"ANC 8D","DAYS":"Thursday","TIMES":"3:00 PM - 6:00 PM","WEBSITE":"https://www.arcadiafood.org","BENEFITS":"SNAP; WIC FMNP; Senior FMNP; Produce Plus  We double SNAP; WIC FMNP; and Senior FMNP.","SOCIAL":"facebook.com/arcadiafood  instagram.com/arcadiafood","STARTDATE":"May","ENDDATE":"December","METRO":null,"BUS":"32/ A2/ A4/ A8/ W1","PARKING":"Yes","MAR_ID":"302935","MAR_MATCHADDRESS":"115 ATLANTIC STREET SW","LONGITUDE":-77.009418789999998,"LATITUDE":38.831251100000003,"X_COORDINATE":399182.19,"Y_COORDINATE":129273.71000000001,"SE_ANNO_CAD_DATA":null,"GLOBALID":"{C2BCFD5B-828A-4A5B-A7AD-50202E4D94E9}","CREATED_DATE":1752272575000,"LAST_EDITED_DATE":1752272575000,"OBJECTID":45}},{"type":"Feature","id":46,"geometry":{"type":"Point","coordinates":[-76.993197369766463,38.836707349585275]},"properties":{"NAME":"Arcadia Mobile Market at Oxon Run","ADDRESS":"Wheeler Road SE & Valley Avenue SE (across from The Overlook)","CITY":"Washington","STATE":"DC","ZIPCODE":"20032","MD_COUNTY":null,"WARD":"Ward 8","ANC":"ANC 8E","DAYS":"Friday","TIMES":"3:00 PM - 6:00 PM","WEBSITE":"https://www.arcadiafood.org","BENEFITS":"SNAP; WIC FMNP; Senior FMNP; Produce Plus  We double SNAP; WIC FMNP; and Senior FMNP.","SOCIAL":"facebook.com/arcadiafood  instagram.com/arcadiafood","STARTDATE":"May","ENDDATE":"December","METRO":"Green Line: Congress Heights","BUS":"A6/ A7/ W1/ W2/ W3","PARKING":"Yes","MAR_ID":"901552","MAR_MATCHADDRESS":"WHEELER ROAD SE AND VALLEY AVENUE SE","LONGITUDE":-76.993197370000004,"LATITUDE":38.836707349999998,"X_COORDINATE":400590.61001449998,"Y_COORDINATE":129879.37000595999,"SE_ANNO_CAD_DATA":null,"GLOBALID":"{5F5540D1-772D-48E5-9FAF-AA557F69E6BD}","CREATED_DATE":1752272575000,"LAST_EDITED_DATE":1752272575000,"OBJECTID":46}},{"type":"Feature","id":47,"geometry":{"type":"Point","coordinates":[-76.976843119750868,38.85657272999218]},"properties":{"NAME":"FRESHFARM Anacostia Community Museum","ADDRESS":"1901 Fort Pl SE, Washington, DC 20020","CITY":"Washington","STATE":"DC","ZIPCODE":"20020","MD_COUNTY":null,"WARD":"Ward 8","ANC":"ANC 8B","DAYS":"Saturday","TIMES":"10:00 AM - 2:00 PM","WEBSITE":"https://www.freshfarm.org/markets","BENEFITS":"SNAP; WIC; Senior FMNP; Produce Plus; FreshMatch","SOCIAL":"https://www.instagram.com/freshfarmdc/, https://twitter.com/freshfarmdc","STARTDATE":"April","ENDDATE":"November","METRO":null,"BUS":"W2/ W3","PARKING":"Yes","MAR_ID":"286524","MAR_MATCHADDRESS":"1901 FORT PLACE SE","LONGITUDE":-76.976843119999998,"LATITUDE":38.856572730000003,"X_COORDINATE":402009.94,"Y_COORDINATE":132084.79999999999,"SE_ANNO_CAD_DATA":null,"GLOBALID":"{0A20C26F-D986-4B1E-8165-F971411EF8E1}","CREATED_DATE":1752272575000,"LAST_EDITED_DATE":1752272575000,"OBJECTID":47}},{"type":"Feature","id":48,"geometry":{"type":"Point","coordinates":[-77.000052290126121,38.83591002984776]},"properties":{"NAME":"FRESHFARM Simon Elementary Farm Stand","ADDRESS":"401 Mississippi Ave SE, Washington, DC 20032","CITY":"Washington","STATE":"DC","ZIPCODE":"20032","MD_COUNTY":null,"WARD":"Ward 8","ANC":"ANC 8C","DAYS":"Thursday","TIMES":"2:30 PM - 4:30 PM","WEBSITE":"https://www.freshfarm.org/markets","BENEFITS":"SNAP; WIC; Senior FMNP; Produce Plus; FreshMatch","SOCIAL":"https://www.instagram.com/freshfarmdc/, https://twitter.com/freshfarmdc","STARTDATE":"May","ENDDATE":"November","METRO":null,"BUS":"A2/ A4/ W1","PARKING":null,"MAR_ID":"294481","MAR_MATCHADDRESS":"401 MISSISSIPPI AVENUE SE","LONGITUDE":-77.000052289999999,"LATITUDE":38.835910030000001,"X_COORDINATE":399995.46000000002,"Y_COORDINATE":129790.84,"SE_ANNO_CAD_DATA":null,"GLOBALID":"{1E89B180-BA85-449E-B6AE-438CB00B3460}","CREATED_DATE":1752272575000,"LAST_EDITED_DATE":1752272575000,"OBJECTID":48}},{"type":"Feature","id":49,"geometry":{"type":"Point","coordinates":[-76.975321870271685,38.843557459927794]},"properties":{"NAME":"FRESHFARM THEARC","ADDRESS":"1901 Mississippi Ave SE, Washington, DC, 20020","CITY":"Washington","STATE":"DC","ZIPCODE":"20020","MD_COUNTY":null,"WARD":"Ward 8","ANC":"ANC 8E","DAYS":"Saturday","TIMES":"10:00 AM - 2:00 PM","WEBSITE":"https://www.freshfarm.org/markets","BENEFITS":"SNAP; WIC; Senior FMNP; Produce Plus; FreshMatch","SOCIAL":"https://www.instagram.com/freshfarmdc/, https://twitter.com/freshfarmdc","STARTDATE":"June","ENDDATE":"November","METRO":"Green Line: Southern Ave","BUS":"W1/ W2/ W3/ 32","PARKING":"Yes","MAR_ID":"295845","MAR_MATCHADDRESS":"1901 MISSISSIPPI AVENUE SE","LONGITUDE":-76.975321870000002,"LATITUDE":38.84355746,"X_COORDINATE":402142.37,"Y_COORDINATE":130640.01000000001,"SE_ANNO_CAD_DATA":null,"GLOBALID":"{5FCC0224-FFE3-4F6E-BF53-E875DEF26B64}","CREATED_DATE":1752272575000,"LAST_EDITED_DATE":1752272575000,"OBJECTID":49}},{"type":"Feature","id":50,"geometry":{"type":"Point","coordinates":[-77.007247349970527,38.87536515005273]},"properties":{"NAME":"Half Street Central Farmers Market","ADDRESS":"1250 Half St SE, Washington, DC","CITY":"Washington","STATE":"DC","ZIPCODE":"20003","MD_COUNTY":null,"WARD":"Ward 8","ANC":"ANC 8F","DAYS":"Saturday","TIMES":"9:00 AM - 1:30 PM","WEBSITE":"https://www.twinspringsfruitfarm.com","BENEFITS":"WIC; FMNP","SOCIAL":"Twin Springs Fruit Farm facebook","STARTDATE":"May","ENDDATE":"December","METRO":"Green Line: Navy Yard-Ballpark","BUS":"A6/ A8/ P6/ V4","PARKING":null,"MAR_ID":"306225","MAR_MATCHADDRESS":"1250 HALF STREET SE","LONGITUDE":-77.00724735,"LATITUDE":38.87536515,"X_COORDINATE":399371.12,"Y_COORDINATE":134170.63,"SE_ANNO_CAD_DATA":null,"GLOBALID":"{76D8B842-09C8-4005-98A9-65E2AEC78ED7}","CREATED_DATE":1752272575000,"LAST_EDITED_DATE":1752272575000,"OBJECTID":50}},{"type":"Feature","id":52,"geometry":{"type":"Point","coordinates":[-76.995089010216347,38.849529969721921]},"properties":{"NAME":"Ward 8 Farmers Market","ADDRESS":"Martin Luther King Ave. SE & Elm Street SE , The Barns, Red Lot Saint Elizabeths Hospital","CITY":"Washington","STATE":"DC","ZIPCODE":"20032","MD_COUNTY":null,"WARD":"Ward 8","ANC":"ANC 8C","DAYS":"Saturday","TIMES":"10:00 AM - 2:00 PM","WEBSITE":"https://www.ward8FarmersMarket.org","BENEFITS":"SNAP market level; WIC; WIC FMNP; Senior FMNP; Produce Plus; Fresh Match","SOCIAL":"#Ward8farmers","STARTDATE":"Junes","ENDDATE":"October","METRO":null,"BUS":"A2/A4/ A6/ A8","PARKING":"Parking Available","MAR_ID":"301562","MAR_MATCHADDRESS":"2700 MARTIN LUTHER KING JR AVENUE SE","LONGITUDE":-76.995089010000001,"LATITUDE":38.849529969999999,"X_COORDINATE":400426.29999999999,"Y_COORDINATE":131302.76000000001,"SE_ANNO_CAD_DATA":null,"GLOBALID":"{36AA35EE-37EB-43CA-AFC0-FFD1F8CABB57}","CREATED_DATE":1752272575000,"LAST_EDITED_DATE":1752272575000,"OBJECTID":52}},{"type":"Feature","id":53,"geometry":{"type":"Point","coordinates":[-77.135398000350392,39.020682999895882]},"properties":{"NAME":"Bethesda United Church of Christ Farmers Market","ADDRESS":"Fernwood & Democracy, Bethesda, MD","CITY":"Bethesda","STATE":"MD","ZIPCODE":"20817","MD_COUNTY":"Montgomery","WARD":null,"ANC":null,"DAYS":"Thursdays, Saturdays","TIMES":"9:00 AM - 1:00 PM","WEBSITE":"https://www.Twinspringsfruitfarm.com","BENEFITS":"WIC FMNP; Senior FMNP; Produce Plus","SOCIAL":"@twinspringfruitfarm","STARTDATE":"Year round","ENDDATE":null,"METRO":null,"BUS":null,"PARKING":"Parking Available","MAR_ID":null,"MAR_MATCHADDRESS":null,"LONGITUDE":-77.135397999999995,"LATITUDE":39.020682999999998,"X_COORDINATE":388275.12943024997,"Y_COORDINATE":150310.06481186999,"SE_ANNO_CAD_DATA":null,"GLOBALID":"{CA9CBA0D-DFAA-4D6F-94C4-863F25C08BF9}","CREATED_DATE":1752272575000,"LAST_EDITED_DATE":1752272575000,"OBJECTID":53}},{"type":"Feature","id":54,"geometry":{"type":"Point","coordinates":[-77.099220000353142,38.986901999954]},"properties":{"NAME":"Bethesda Central Farm Market","ADDRESS":"Bethesda Elementary School 7600 Arlington Rd, Bethesda, MD 20814","CITY":"Bethesda","STATE":"MD","ZIPCODE":"20814","MD_COUNTY":"Montgomery","WARD":null,"ANC":null,"DAYS":"Sunday","TIMES":"9:00 AM - 1:30 PM","WEBSITE":null,"BENEFITS":null,"SOCIAL":null,"STARTDATE":null,"ENDDATE":null,"METRO":null,"BUS":null,"PARKING":null,"MAR_ID":null,"MAR_MATCHADDRESS":null,"LONGITUDE":-77.099220000000003,"LATITUDE":38.986902000000001,"X_COORDINATE":391403.96053049999,"Y_COORDINATE":146556.00410542,"SE_ANNO_CAD_DATA":null,"GLOBALID":"{8167FB28-D014-4F23-B4FD-09B762A6EF44}","CREATED_DATE":1752272575000,"LAST_EDITED_DATE":1752272575000,"OBJECTID":54}},{"type":"Feature","id":55,"geometry":{"type":"Point","coordinates":[-77.113410999735436,39.012460000176397]},"properties":{"NAME":"Cheverly Community Market","ADDRESS":"6401 Forest Rd, Cheverly, MD","CITY":"Cheverly","STATE":"MD","ZIPCODE":"20785","MD_COUNTY":"Prince George's","WARD":null,"ANC":null,"DAYS":"Saturday (every other)","TIMES":"8:00 AM - 12:00 PM","WEBSITE":"https://www.cheverlycommunitymarket.org","BENEFITS":"SNAP; WIC FMNP; Senior FMNP We double SNAP; WIC FMNP; and Senior FMNP.","SOCIAL":"https://www.instagram.com/cheverlycommunitymarket","STARTDATE":"May","ENDDATE":"December","METRO":"Orange Line: Cheverly","BUS":"Ride on: 18; WMATA: F8/ F13/ F1/ L12","PARKING":"Parking Available","MAR_ID":null,"MAR_MATCHADDRESS":null,"LONGITUDE":-77.113410999999999,"LATITUDE":39.012459999999997,"X_COORDINATE":390178.00387695001,"Y_COORDINATE":149394.6310808,"SE_ANNO_CAD_DATA":null,"GLOBALID":"{C4E15588-7C6D-4EE8-8BCE-10B4B27987F0}","CREATED_DATE":1752272575000,"LAST_EDITED_DATE":1752272575000,"OBJECTID":55}},{"type":"Feature","id":56,"geometry":{"type":"Point","coordinates":[-77.071879000436155,38.980978000432067]},"properties":{"NAME":"New Morning Farm - Chevy Chase","ADDRESS":"Taylor Street at Brookville Rd Chevy Chase, MD","CITY":"Chevy Chase","STATE":"MD","ZIPCODE":"20815","MD_COUNTY":"Montgomery","WARD":null,"ANC":null,"DAYS":"Saturdays","TIMES":"8:00 AM - 1:00 PM","WEBSITE":"https://www.newmorningfarm.net/markets","BENEFITS":"WIC FMNP; Senior FMNP","SOCIAL":"@newmorningfarm","STARTDATE":"year round","ENDDATE":null,"METRO":null,"BUS":null,"PARKING":null,"MAR_ID":null,"MAR_MATCHADDRESS":null,"LONGITUDE":-77.071878999999996,"LATITUDE":38.980978,"X_COORDINATE":393772.21593763999,"Y_COORDINATE":145896.16245236,"SE_ANNO_CAD_DATA":null,"GLOBALID":"{358B3330-3CCA-4583-A191-9090F11BDD47}","CREATED_DATE":1752272575000,"LAST_EDITED_DATE":1752272575000,"OBJECTID":56}},{"type":"Feature","id":57,"geometry":{"type":"Point","coordinates":[-77.117877000511712,39.051379999980661]},"properties":{"NAME":"Pike Central Farm Market","ADDRESS":"910 Rose Ave, N. Bethesda, MD","CITY":"North Bethesda","STATE":"MD","ZIPCODE":"20852","MD_COUNTY":"Montgomery","WARD":null,"ANC":null,"DAYS":"Saturdays","TIMES":"9:00 AM - 1:30 PM","WEBSITE":"https://www.centralfarmmarkets.com/pike","BENEFITS":"WIC FMNP; Senior FMNP","SOCIAL":"@centralfarmmarkets","STARTDATE":"April","ENDDATE":"December","METRO":"Red Line: North Bethesda","BUS":"46","PARKING":null,"MAR_ID":null,"MAR_MATCHADDRESS":null,"LONGITUDE":-77.117876999999993,"LATITUDE":39.051380000000002,"X_COORDINATE":389796.79594419,"Y_COORDINATE":153715.66220244,"SE_ANNO_CAD_DATA":null,"GLOBALID":"{10D9F084-76D8-41A0-A15B-D78DF3F9EFF0}","CREATED_DATE":1752272575000,"LAST_EDITED_DATE":1752272575000,"OBJECTID":57}},{"type":"Feature","id":58,"geometry":{"type":"Point","coordinates":[-76.877269999453063,39.001017000236196]},"properties":{"NAME":"Greenbelt Farmers Market","ADDRESS":"25 Crescent Rd, Greenbelt, MD","CITY":"Greenbelt","STATE":"MD","ZIPCODE":"20770","MD_COUNTY":"Prince George's","WARD":null,"ANC":null,"DAYS":"Sundays","TIMES":"10:00 AM - 12:00 PM","WEBSITE":"https://www.greenbeltfarmersmarket.org","BENEFITS":"WIC FMNP; Senior FMNP","SOCIAL":"Instagram:  @greenbelt.farmersmarket Twitter: @greenbeltfm","STARTDATE":"May","ENDDATE":"November","METRO":null,"BUS":"11/ G12/ G14","PARKING":"Parking Available","MAR_ID":null,"MAR_MATCHADDRESS":null,"LONGITUDE":-76.877269999999996,"LATITUDE":39.001016999999997,"X_COORDINATE":410631.19145255,"Y_COORDINATE":148125.38467407,"SE_ANNO_CAD_DATA":null,"GLOBALID":"{605EEC9B-6148-499E-8B28-8D41DD687C01}","CREATED_DATE":1752272575000,"LAST_EDITED_DATE":1752272575000,"OBJECTID":58}},{"type":"Feature","id":59,"geometry":{"type":"Point","coordinates":[-77.011981000500938,38.974404000147487]},"properties":{"NAME":"Takoma Park Farmers Market","ADDRESS":"Parking Lot Behind the Shops on Laurel Avenue, Takoma Park","CITY":"Taloma Park","STATE":"MD","ZIPCODE":"20912","MD_COUNTY":"Montgomery","WARD":null,"ANC":null,"DAYS":"Sundays","TIMES":"10:00 AM - 2:00 PM","WEBSITE":"https://www.takomaparkmarket.com","BENEFITS":"SNAP; WIC FMNP; Senior FMNP (We double federal benefits)","SOCIAL":null,"STARTDATE":"year round","ENDDATE":null,"METRO":null,"BUS":null,"PARKING":null,"MAR_ID":null,"MAR_MATCHADDRESS":null,"LONGITUDE":-77.011980999999992,"LATITUDE":38.974404,"X_COORDINATE":398962.00424330001,"Y_COORDINATE":145164.00118398,"SE_ANNO_CAD_DATA":null,"GLOBALID":"{44FDA8A0-14A8-4B27-A380-E33E16CA41EE}","CREATED_DATE":1752272575000,"LAST_EDITED_DATE":1752272575000,"OBJECTID":59}},{"type":"Feature","id":60,"geometry":{"type":"Point","coordinates":[-76.990319999735121,38.99055000020013]},"properties":{"NAME":"Crossroads Farmers Market","ADDRESS":"Ann St at University Blvd East, Takoma Park, MD 20912","CITY":"Taloma Park","STATE":"MD","ZIPCODE":"20912","MD_COUNTY":"Montgomery","WARD":null,"ANC":null,"DAYS":"Wednesday","TIMES":"10:30 AM - 2:30 PM","WEBSITE":"https://www.crossroadscommunityfoodnetwork.org/","BENEFITS":"SNAP; WIC FMNP; Senior FMNP; Produce Plus We double SNAP; WIC FMNP; and Senior FMNP.","SOCIAL":"Instagram: @crossroadsntwk ; Facebook: Crossroads Community Food Network, Crossroads Farmers Market,","STARTDATE":"April","ENDDATE":"November","METRO":null,"BUS":"Takoma Langley Crossroads Transit Center- Ride on: 12/ 13/ 14/ 16/ 18/ 24/ 25; WMATA 52/ 54/ 59/ 62/ 63 F1/ K2","PARKING":"Parking Available (street)","MAR_ID":null,"MAR_MATCHADDRESS":null,"LONGITUDE":-76.990319999999997,"LATITUDE":38.990549999999999,"X_COORDINATE":400838.81287695002,"Y_COORDINATE":146956.34087814001,"SE_ANNO_CAD_DATA":null,"GLOBALID":"{F2089C08-9E59-4F8D-9A02-E89A3F1C7E72}","CREATED_DATE":1752272575000,"LAST_EDITED_DATE":1752272575000,"OBJECTID":60}},{"type":"Feature","id":61,"geometry":{"type":"Point","coordinates":[-77.181953999501815,39.123279000327457]},"properties":{"NAME":"Casey Farmers Market","ADDRESS":"810 South Frederick Ave, Gaithersburg, MD","CITY":"Gaithersburg","STATE":"MD","ZIPCODE":"20877","MD_COUNTY":"Montgomery","WARD":null,"ANC":null,"DAYS":"Thursdays","TIMES":"11:00 AM - 2:30 PM","WEBSITE":"https://www.gaithersburgmd.gov/recreation/ farmers-markets","BENEFITS":"SNAP; WIC; WIC FMNP; Senior FMNP","SOCIAL":null,"STARTDATE":"May","ENDDATE":"Nov","METRO":"Green Line: Greenbelt","BUS":"G12/G14","PARKING":"Yes","MAR_ID":null,"MAR_MATCHADDRESS":null,"LONGITUDE":-77.18195399999999,"LATITUDE":39.123278999999997,"X_COORDINATE":384266.22255673999,"Y_COORDINATE":161706.42976408001,"SE_ANNO_CAD_DATA":null,"GLOBALID":"{CCEBCE1C-2C0C-418D-9B4A-3E320C8E45B8}","CREATED_DATE":1752272575000,"LAST_EDITED_DATE":1752272575000,"OBJECTID":61}},{"type":"Feature","id":62,"geometry":{"type":"Point","coordinates":[-77.002288000424869,38.724029999591366]},"properties":{"NAME":"Forward Farmers Market","ADDRESS":"12200 Fort Washington Rd, Fort Washington, MD 20744","CITY":"Fort Washington","STATE":"MD","ZIPCODE":"20744","MD_COUNTY":"Prince George's","WARD":null,"ANC":null,"DAYS":"2nd & 4th Satruday","TIMES":"9:00 AM - 1:00 PM","WEBSITE":"https://www.fwforward.org/farmers-market","BENEFITS":"SNAP; WIC FMNP; Senior FMNP; Produce Plus","SOCIAL":null,"STARTDATE":"May","ENDDATE":"October","METRO":"Bus: 681, 884, 885, 886, A8, NH2, P12, P18","BUS":null,"PARKING":null,"MAR_ID":null,"MAR_MATCHADDRESS":null,"LONGITUDE":-77.002287999999993,"LATITUDE":38.724029999999999,"X_COORDINATE":399801.23813683999,"Y_COORDINATE":117370.63994571001,"SE_ANNO_CAD_DATA":null,"GLOBALID":"{BE06982F-188F-4260-828F-E33CDC7143AF}","CREATED_DATE":1752272575000,"LAST_EDITED_DATE":1752272575000,"OBJECTID":62}},{"type":"Feature","id":63,"geometry":{"type":"Point","coordinates":[-77.092896999784998,39.038193000380083]},"properties":{"NAME":"Garrett Park Farmers Market","ADDRESS":"4600 Waverly Ave, Garrett Park, MD 20896","CITY":"Garrett Park","STATE":"MD","ZIPCODE":"20896","MD_COUNTY":"Montgomery","WARD":null,"ANC":null,"DAYS":"Saturday","TIMES":"9:00 AM - 1:00 PM","WEBSITE":"https://garrettparkmd.gov/residents/penn_place/farmers_market.php","BENEFITS":"SNAP; WIC FMNP; Senior FMNP; Produce Plus","SOCIAL":null,"STARTDATE":"February","ENDDATE":"December","METRO":"Red Line: Shady Grove","BUS":"38","PARKING":null,"MAR_ID":null,"MAR_MATCHADDRESS":null,"LONGITUDE":-77.092896999999994,"LATITUDE":39.038193,"X_COORDINATE":391957.56768123998,"Y_COORDINATE":152249.26165818001,"SE_ANNO_CAD_DATA":null,"GLOBALID":"{6625B215-017C-4792-9373-60B6B480B805}","CREATED_DATE":1752272575000,"LAST_EDITED_DATE":1752272575000,"OBJECTID":63}},{"type":"Feature","id":64,"geometry":{"type":"Point","coordinates":[-76.957577000340876,38.938779999939264]},"properties":{"NAME":"Gateway Farmers Market","ADDRESS":"Fire Station 3716 Rhode Island Ave, Brentwood, MD 20722","CITY":"Brentwod","STATE":"MD","ZIPCODE":"20722","MD_COUNTY":"Prince George's","WARD":null,"ANC":null,"DAYS":"Saturday","TIMES":"9:00 AM - 1:00 PM","WEBSITE":null,"BENEFITS":"SNAP; WIC FMNP; Senior FMNP; Produce Plus","SOCIAL":"Instagram: @gateway_farmersmarket","STARTDATE":"May","ENDDATE":"November","METRO":null,"BUS":"83/ 86/ B2/ G8/ F1/ T14/ T18/ X8","PARKING":null,"MAR_ID":null,"MAR_MATCHADDRESS":null,"LONGITUDE":-76.957577000000001,"LATITUDE":38.938780000000001,"X_COORDINATE":403678.13172945002,"Y_COORDINATE":141210.19670711001,"SE_ANNO_CAD_DATA":null,"GLOBALID":"{0F602A1E-3A1D-407A-8A38-86AA7F37AE61}","CREATED_DATE":1752272575000,"LAST_EDITED_DATE":1752272575000,"OBJECTID":64}},{"type":"Feature","id":65,"geometry":{"type":"Point","coordinates":[-76.921192999797725,39.013584999886952]},"properties":{"NAME":"Hollywood Farmers Market","ADDRESS":"Hollywood Shopping Center  9801 Rhode Island Avenue , College Park, MD 20740","CITY":"College Park","STATE":"MD","ZIPCODE":"20740","MD_COUNTY":"Prince George's","WARD":null,"ANC":null,"DAYS":"Saturday","TIMES":"9:00 AM - 1:00 PM","WEBSITE":"https://hollywoodmarket.org/","BENEFITS":"SNAP; WIC FMNP; Senior FMNP; Produce Plus","SOCIAL":null,"STARTDATE":"April","ENDDATE":"November","METRO":"Bus: 83 Metro: Green Greenbelt Marc SB; Red Rhode Island Ave-Brentwood","BUS":null,"PARKING":null,"MAR_ID":null,"MAR_MATCHADDRESS":null,"LONGITUDE":-76.921193000000002,"LATITUDE":39.013584999999999,"X_COORDINATE":406825.33488236001,"Y_COORDINATE":149516.36221287999,"SE_ANNO_CAD_DATA":null,"GLOBALID":"{8A3292A2-D1C9-462D-8206-029600A080BD}","CREATED_DATE":1752272575000,"LAST_EDITED_DATE":1752272575000,"OBJECTID":65}},{"type":"Feature","id":66,"geometry":{"type":"Point","coordinates":[-76.935342000062178,38.963175999979555]},"properties":{"NAME":"Riverdale Park Farmers Market","ADDRESS":"6220 Rhode Island Avenue Riverdale Park, MD 20737","CITY":"Riverdale Park","STATE":"MD","ZIPCODE":"20737","MD_COUNTY":"Montgomery","WARD":null,"ANC":null,"DAYS":"Thursday","TIMES":"3:00 PM - 7:00 PM","WEBSITE":"https://www.facebook.com/RPFMarket","BENEFITS":"SNAP; WIC FMNP; Senior FMNP; Produce Plus We double SNAP; WIC FMNP; and Senior FMNP.","SOCIAL":"Rparkfm","STARTDATE":"Year round","ENDDATE":null,"METRO":"Bus: 14, 83, 86, F4, F6 Metro: Green Hyattsville Crossing Parking Available","BUS":null,"PARKING":null,"MAR_ID":null,"MAR_MATCHADDRESS":null,"LONGITUDE":-76.935341999999991,"LATITUDE":38.963175999999997,"X_COORDINATE":405603.91420529003,"Y_COORDINATE":143919.50340262,"SE_ANNO_CAD_DATA":null,"GLOBALID":"{01562EA6-F803-43EE-94C5-C3CC4B3F157F}","CREATED_DATE":1752272575000,"LAST_EDITED_DATE":1752272575000,"OBJECTID":66}},{"type":"Feature","id":67,"geometry":{"type":"Point","coordinates":[-77.025037000234278,38.997123000139929]},"properties":{"NAME":"FRESHFARM Downtown Silver Spring","ADDRESS":"1 Veterans Pl, Silver Spring, MD","CITY":"Silver Spring","STATE":"MD","ZIPCODE":"20910","MD_COUNTY":"Montgomery","WARD":null,"ANC":null,"DAYS":"Saturday","TIMES":"9:00 AM - 1:00 PM","WEBSITE":"https://www.freshfarm.org/markets","BENEFITS":"SNAP; WIC; Senior FMNP; Produce Plus; FreshMatch","SOCIAL":"https://www.instagram.com/freshfarmdc/, https://twitter.com/freshfarmdc","STARTDATE":"Year round","ENDDATE":null,"METRO":"Red Line: Silver Spring","BUS":null,"PARKING":null,"MAR_ID":null,"MAR_MATCHADDRESS":null,"LONGITUDE":-77.025036999999998,"LATITUDE":38.997122999999995,"X_COORDINATE":397831.34962018998,"Y_COORDINATE":147686.26268481,"SE_ANNO_CAD_DATA":null,"GLOBALID":"{8016A34D-60BB-4C2B-B047-A38189A47592}","CREATED_DATE":1752272575000,"LAST_EDITED_DATE":1752272575000,"OBJECTID":67}},{"type":"Feature","id":68,"geometry":{"type":"Point","coordinates":[-76.997267389710032,38.953340860452357]},"properties":{"NAME":"UDC Lamont Riggs Farmers Market","ADDRESS":"5171 S. Dakota Ave. NE Washington, DC 20017 (near the Fort Totten Metro station on the Red, Yellow, and Green lines).","CITY":"Washington","STATE":"DC","ZIPCODE":"20017","MD_COUNTY":null,"WARD":"Ward 5","ANC":"ANC 5A","DAYS":"Friday","TIMES":"4:00 PM - 8:00 PM","WEBSITE":"https://www.thefarmersalliance.org/markets/lamond-riggs","BENEFITS":"SNAL/ PP. NFMNP","SOCIAL":"https://www.facebook.com/farmersalliancengo/","STARTDATE":"May","ENDDATE":"October","METRO":"Green/Red Line: Fort Totten","BUS":"80/E4/K6/K9/60/64/E2/F6/K2/R1/R2","PARKING":"Yes","MAR_ID":"294607","MAR_MATCHADDRESS":"5171 SOUTH DAKOTA AVENUE NE","LONGITUDE":-76.997267390000005,"LATITUDE":38.953340859999997,"X_COORDINATE":400236.85999999999,"Y_COORDINATE":142826.56,"SE_ANNO_CAD_DATA":null,"GLOBALID":"{080A2D24-BCE5-4EA4-9DE1-FA6BE5B4A5E1}","CREATED_DATE":1752272575000,"LAST_EDITED_DATE":1752272575000,"OBJECTID":68}},{"type":"Feature","id":69,"geometry":{"type":"Point","coordinates":[-76.916044989433473,38.889429310384919]},"properties":{"NAME":"East Capitol Farmers Market","ADDRESS":"5929 East Capitol St. SE Washington DC 20019","CITY":"Washington","STATE":"DC","ZIPCODE":"20019","MD_COUNTY":null,"WARD":"Ward 7","ANC":"ANC 7C","DAYS":"Saturday","TIMES":"10:00 AM - 3:00 PM","WEBSITE":"https://www.thefarmersalliance.org/eastcapitol","BENEFITS":"Produce Plus;SNAP - Market Level;SNAP - Individual Farmer;Senior FMNP;WIC FMNP","SOCIAL":"INSTAGRAM FarmersAlliance.ngo\"\"","STARTDATE":"May","ENDDATE":"November","METRO":"Silver/Blue Lines: Capitol Heights","BUS":"V2/V4/96/A12/F14/X9/24","PARKING":"Yes","MAR_ID":"288740","MAR_MATCHADDRESS":"5929 EAST CAPITOL STREET SE","LONGITUDE":-76.916044990000003,"LATITUDE":38.889429309999997,"X_COORDINATE":407283.66000000003,"Y_COORDINATE":135735.22,"SE_ANNO_CAD_DATA":null,"GLOBALID":"{DE26CF93-4A79-4364-A248-226A1D698526}","CREATED_DATE":1752272575000,"LAST_EDITED_DATE":1752272575000,"OBJECTID":69}},{"type":"Feature","id":2,"geometry":{"type":"Point","coordinates":[-77.016205335918073,38.918524655623351]},"properties":{"NAME":"Common Good City Farm","ADDRESS":"300 V St NW/ Washington/ DC 20001","CITY":"Washington","STATE":"DC","ZIPCODE":"20001","MD_COUNTY":null,"WARD":"Ward 1","ANC":"ANC 1B","DAYS":"Wednesdays","TIMES":"3:30 PM - 6:30 PM","WEBSITE":"https://www.commongoodcityfarm.org","BENEFITS":"SNAP; WIC FMNP; Senior FMNP; Produce Plus; Pay What You Can/Sliding Scale Pricing Structures We double SNAP.","SOCIAL":"IG: @commongoodcityfarm Facebook: https://www.facebook.com/CommonGoodCityFarm/","STARTDATE":"May","ENDDATE":"November","METRO":"Green Line: Shaw-Howard U","BUS":"G2/ G8/ 63/ 64/ 70/ 79/ 90/ 92/ 96","PARKING":"Parking Available (street)","MAR_ID":"807762","MAR_MATCHADDRESS":"200 - 399 BLOCK OF V STREET NW","LONGITUDE":-77.016203050000001,"LATITUDE":38.918516859999997,"X_COORDINATE":398594.85000000003,"Y_COORDINATE":138960.95000000001,"SE_ANNO_CAD_DATA":null,"GLOBALID":"{D10F1317-A638-483C-9887-EAA3502E4557}","CREATED_DATE":1752272575000,"LAST_EDITED_DATE":1752272575000,"OBJECTID":2}},{"type":"Feature","id":1,"geometry":{"type":"Point","coordinates":[-77.042093819960201,38.92305510967099]},"properties":{"NAME":"Adams Morgan Farmers Market","ADDRESS":"(Unity Park) Euclid Street & Columbia Road","CITY":"Washington","STATE":"DC","ZIPCODE":"20009","MD_COUNTY":null,"WARD":"Ward 1","ANC":"ANC 1C","DAYS":"Saturday","TIMES":"8:30 AM - 1:00 PM","WEBSITE":"https://www.lickingcreekbendfarm.com","BENEFITS":"WIC FMNP; Senior FMNP; Produce Plus","SOCIAL":"@lickingcreekbendfarm","STARTDATE":"June","ENDDATE":"December","METRO":"Red Line: Dupont Circle; Woodley Park-Zoo/Adams Morgan; Green Line: Columbia Heights","BUS":"42/ 43/ 90/ 96/ L2","PARKING":null,"MAR_ID":"911177","MAR_MATCHADDRESS":"EUCLID STREET NW AND COLUMBIA ROAD NW","LONGITUDE":-77.042093820000005,"LATITUDE":38.92305511,"X_COORDINATE":396349.79999457003,"Y_COORDINATE":139465.45001485999,"SE_ANNO_CAD_DATA":null,"GLOBALID":"{3355BE9E-33DD-413B-940F-7BC87575B6D3}","CREATED_DATE":1752272575000,"LAST_EDITED_DATE":1752272575000,"OBJECTID":1}},{"type":"Feature","id":3,"geometry":{"type":"Point","coordinates":[-77.032748519738334,38.930230770199444]},"properties":{"NAME":"FRESHFARM Columbia Heights (WED/SAT)","ADDRESS":"1400 Park Rd NW, Washington, DC 20010","CITY":"Washington","STATE":"DC","ZIPCODE":"20010","MD_COUNTY":null,"WARD":"Ward 1","ANC":"ANC 1A","DAYS":"Wednesday; Saturday","TIMES":"Wednesday 3:00 PM - 7:00 PM; Saturday 9:00 AM - 1:00 PM","WEBSITE":"https://www.freshfarm.org/markets","BENEFITS":"SNAP; WIC; Senior FMNP; Produce Plus; FreshMatch","SOCIAL":"https://www.instagram.com/freshfarmdc/, https://twitter.com/freshfarmdc","STARTDATE":"Wednesdays in May; Saturdays year round","ENDDATE":"Wednesday ends November; Saturdays year round","METRO":"Green Line: Columbia Heights","BUS":"52/ 54/ 59","PARKING":null,"MAR_ID":"906284","MAR_MATCHADDRESS":"14TH STREET NW AND PARK ROAD NW","LONGITUDE":-77.032748519999998,"LATITUDE":38.930230770000001,"X_COORDINATE":397160.47106731997,"Y_COORDINATE":140261.67798358999,"SE_ANNO_CAD_DATA":null,"GLOBALID":"{EF32097B-3B34-4CE3-91E6-D4FF91F2B327}","CREATED_DATE":1752272575000,"LAST_EDITED_DATE":1752272575000,"OBJECTID":3}},{"type":"Feature","id":4,"geometry":{"type":"Point","coordinates":[-77.038307970525182,38.931152540000866]},"properties":{"NAME":"Mount Pleasant Farmers' Market","ADDRESS":"Plaza at 3200 Mount Pleasant St NW DC 20010","CITY":"Washington","STATE":"DC","ZIPCODE":"20010","MD_COUNTY":null,"WARD":"Ward 1","ANC":"ANC 1D","DAYS":"Saturday","TIMES":"9:00 AM - 1:00 PM","WEBSITE":"https://www.facebook.com/MtPFarMar","BENEFITS":"SNAP market level; WIC; WIC FMNP; Senior FMNP; Produce Plus; Fresh Match","SOCIAL":"https://www.instagram.com/mtpfm/","STARTDATE":"year round","ENDDATE":null,"METRO":"Green Line: Columbia Heights","BUS":"42/43/H2/H4/H8/S2/S9","PARKING":null,"MAR_ID":"904466","MAR_MATCHADDRESS":"MOUNT PLEASANT STREET NW AND LAMONT STREET NW","LONGITUDE":-77.038307970000005,"LATITUDE":38.931152539999999,"X_COORDINATE":396678.47001087002,"Y_COORDINATE":140364.19001568999,"SE_ANNO_CAD_DATA":null,"GLOBALID":"{C57CCF10-1769-41FF-AD66-829B18220DB6}","CREATED_DATE":1752272575000,"LAST_EDITED_DATE":1752272575000,"OBJECTID":4}},{"type":"Feature","id":5,"geometry":{"type":"Point","coordinates":[-77.020189389453307,38.900228739981969]},"properties":{"NAME":"Arcadia Mobile Market at Wah Luck","ADDRESS":"Wah Luck House, 800 6th Street NW","CITY":"Washington","STATE":"DC","ZIPCODE":"20001","MD_COUNTY":null,"WARD":"Ward 2","ANC":"ANC 2C","DAYS":"Wednesdays","TIMES":"10:30 AM - 1:30 PM","WEBSITE":"https://www.arcadiafood.org","BENEFITS":"SNAP; WIC FMNP; Senior FMNP; Produce Plus  We double SNAP; WIC FMNP; and Senior FMNP.","SOCIAL":"facebook.com/arcadiafood  instagram.com/arcadiafood","STARTDATE":"May","ENDDATE":"December","METRO":"Green/Yellow/Red Line: Gallery Pl-Chinatown","BUS":"80/ P6/ X2","PARKING":"Yes","MAR_ID":"279939","MAR_MATCHADDRESS":"800 6TH STREET NW","LONGITUDE":-77.020189389999999,"LATITUDE":38.900228740000003,"X_COORDINATE":398248.70000000001,"Y_COORDINATE":136930.85000000001,"SE_ANNO_CAD_DATA":null,"GLOBALID":"{311CFEB0-576C-4D59-9ED9-CFB57BD0A28D}","CREATED_DATE":1752272575000,"LAST_EDITED_DATE":1752272575000,"OBJECTID":5}},{"type":"Feature","id":6,"geometry":{"type":"Point","coordinates":[-77.035227680278823,38.900822970394024]},"properties":{"NAME":"FRESHFARM By the White House","ADDRESS":"810 Vermont Ave NW, Washington, DC 20420","CITY":"Washington","STATE":"DC","ZIPCODE":"20420","MD_COUNTY":null,"WARD":"Ward 2","ANC":"ANC 2C","DAYS":"Thursday","TIMES":"11:00 AM - 2:00 PM","WEBSITE":"https://www.freshfarm.org/markets","BENEFITS":"SNAP; WIC; Senior FMNP; Produce Plus; FreshMatch","SOCIAL":"https://www.instagram.com/freshfarmdc/, https://twitter.com/freshfarmdc","STARTDATE":"April","ENDDATE":"November","METRO":"Red Line: Farragut North; Orange/Blue/Silver: McPherson Square","BUS":"G11/ 3Y/ 32/ D6/ S2/ X2","PARKING":null,"MAR_ID":"279954","MAR_MATCHADDRESS":"810 VERMONT AVENUE NW","LONGITUDE":-77.035227680000006,"LATITUDE":38.90082297,"X_COORDINATE":396944.25,"Y_COORDINATE":136997.20999999999,"SE_ANNO_CAD_DATA":null,"GLOBALID":"{49F4215F-CAC8-497A-86CF-8852735E1935}","CREATED_DATE":1752272575000,"LAST_EDITED_DATE":1752272575000,"OBJECTID":6}},{"type":"Feature","id":7,"geometry":{"type":"Point","coordinates":[-77.026245829666152,38.90108476991864]},"properties":{"NAME":"FRESHFARM CityCenterDC","ADDRESS":"1098 New York Ave NW, Washington, DC 20001","CITY":"Washington","STATE":"DC","ZIPCODE":"20001","MD_COUNTY":null,"WARD":"Ward 2","ANC":"ANC 2C","DAYS":"Tuesday","TIMES":"11:00 AM - 2:00 PM","WEBSITE":"https://www.freshfarm.org/markets","BENEFITS":"SNAP; WIC; Senior FMNP; Produce Plus; FreshMatch","SOCIAL":"https://www.instagram.com/freshfarmdc/, https://twitter.com/freshfarmdc","STARTDATE":"May","ENDDATE":"October","METRO":"Red/Green/Yellow Line: Gallery Pl-Chinatown, Metro Center; Orange/Blue/Silver: McPherson Square, Metro Center","BUS":"G8/ X2/ 62/ S2","PARKING":null,"MAR_ID":"307815","MAR_MATCHADDRESS":"890 10TH STREET NW","LONGITUDE":-77.026245829999993,"LATITUDE":38.901084769999997,"X_COORDINATE":397723.37,"Y_COORDINATE":137026.01000000001,"SE_ANNO_CAD_DATA":null,"GLOBALID":"{9432D03F-862E-4BC9-9740-35D6F3FC055D}","CREATED_DATE":1752272575000,"LAST_EDITED_DATE":1752272575000,"OBJECTID":7}},{"type":"Feature","id":8,"geometry":{"type":"Point","coordinates":[-77.044887700007664,38.911126359931892]},"properties":{"NAME":"FRESHFARM Dupont Circle","ADDRESS":"1600 20th St NW, Washington, DC 20009","CITY":"Washington","STATE":"DC","ZIPCODE":"20009","MD_COUNTY":null,"WARD":"Ward 2","ANC":"ANC 2B","DAYS":"Sunday","TIMES":"8:30 AM - 1:30 PM","WEBSITE":"https://www.freshfarm.org/markets","BENEFITS":"SNAP; WIC; Senior FMNP; Produce Plus; FreshMatch","SOCIAL":"https://www.instagram.com/freshfarmdc/, https://twitter.com/freshfarmdc","STARTDATE":"Year round","ENDDATE":null,"METRO":"Red Line: Dupont Circle","BUS":"42/ N2/ N4/ N6/ D6","PARKING":null,"MAR_ID":"900433","MAR_MATCHADDRESS":"Q STREET NW AND 20TH STREET NW","LONGITUDE":-77.044887700000004,"LATITUDE":38.911126359999997,"X_COORDINATE":396106.87500234001,"Y_COORDINATE":138141.37500562999,"SE_ANNO_CAD_DATA":null,"GLOBALID":"{1FF0D64F-5F5C-4771-A038-786F80BC7BE3}","CREATED_DATE":1752272575000,"LAST_EDITED_DATE":1752272575000,"OBJECTID":8}},{"type":"Feature","id":39,"geometry":{"type":"Point","coordinates":[-76.932455150210643,38.893315409874354]},"properties":{"NAME":"Dreaming Out Loud's Kelly Miller Market","ADDRESS":"301 49th Street NE, Washington, DC 20019","CITY":"Washington","STATE":"DC","ZIPCODE":"20019","MD_COUNTY":null,"WARD":"Ward 7","ANC":"ANC 7C","DAYS":"Saturday","TIMES":"10:00 AM - 1:00 PM","WEBSITE":"https://www.dolgrocery.org","BENEFITS":"SNAP; WIC FMNP; Senior FMNP; Produce Plus; Breadcoin We double SNAP.","SOCIAL":"@doldc & @dolgrocery","STARTDATE":"June","ENDDATE":"November","METRO":"Silver/Blue Line: Benning Road ","BUS":"U5/ U6","PARKING":"Parking Available","MAR_ID":"294476","MAR_MATCHADDRESS":"301 49TH STREET NE","LONGITUDE":-76.932455149999996,"LATITUDE":38.89331541,"X_COORDINATE":405859.65000000002,"Y_COORDINATE":136165.39000000001,"SE_ANNO_CAD_DATA":null,"GLOBALID":"{7DC2AB81-CE63-4EF4-B690-8EFC723A7D31}","CREATED_DATE":1752272575000,"LAST_EDITED_DATE":1752272575000,"OBJECTID":39}},{"type":"Feature","id":323,"geometry":{"type":"Point","coordinates":[-77.068039430942108,38.966635018804027]},"properties":{"NAME":"Chevy Chase Farmers Market","ADDRESS":"5701 Broad Branch Rd NW","CITY":"Washington","STATE":"DC","ZIPCODE":"20015","MD_COUNTY":null,"WARD":"Ward 4","ANC":"ANC 3/4G","DAYS":"Saturday","TIMES":"9:00 AM - 1:00 PM","WEBSITE":"www.chevychasefarmersmarket.com","BENEFITS":"SNAP - Individual Farmer; DC PIP","SOCIAL":"Chevychasefarmersmarket","STARTDATE":"April","ENDDATE":"December","METRO":null,"BUS":"E4","PARKING":"Yes","MAR_ID":"294611","MAR_MATCHADDRESS":"5701 BROAD BRANCH ROAD NW","LONGITUDE":-77.06803699999999,"LATITUDE":38.966628,"X_COORDINATE":394103.71000000002,"Y_COORDINATE":144303.70000000001,"SE_ANNO_CAD_DATA":null,"GLOBALID":"{41AC74D8-9709-4909-8578-40DB5C2BDE5C}","CREATED_DATE":1752281937000,"LAST_EDITED_DATE":1752281937000,"OBJECTID":323}},{"type":"Feature","id":325,"geometry":{"type":"Point","coordinates":[-77.006178077973843,38.897627241703539]},"properties":{"NAME":"West Porch Fridays (Union Station)","ADDRESS":"50 Massachusetts Avenue NE ","CITY":"Washington","STATE":"DC","ZIPCODE":"20002","MD_COUNTY":null,"WARD":"Ward 6","ANC":"ANC 6C","DAYS":"Friday","TIMES":"11:30 AM - 3:30 PM","WEBSITE":"https://www.unionstationdc.com/events/west-porch-fridays/","BENEFITS":"Produce Plus;SNAP - Market Level;SNAP - Individual Farmer;Senior FMNP;WIC FMNP; No, but I am interested in matching benefits.","SOCIAL":"https://www.instagram.com/ecking___ton.hall/","STARTDATE":"June","ENDDATE":"September","METRO":"Red Line: Union Station","BUS":null,"PARKING":"Yes","MAR_ID":"293243","MAR_MATCHADDRESS":"50 MASSACHUSETTS AVENUE NE","LONGITUDE":-77.006175999999996,"LATITUDE":38.897618999999999,"X_COORDINATE":399464.27000000002,"Y_COORDINATE":136641.06,"SE_ANNO_CAD_DATA":null,"GLOBALID":"{FA35D1EE-0D6E-470E-BDD2-3B5FFC3315C0}","CREATED_DATE":1752282277000,"LAST_EDITED_DATE":1752282277000,"OBJECTID":325}}]}